City_ID,City,Lat,Lng,Max Temp,Humidity,Cloudiness,Wind Speed,Country,Date
0,hermanus,-34.4187,19.2345,9.89,71,31,10.26,ZA,1727655759
1,stanley,54.868,-1.6985,10.16,84,20,3.09,GB,1727655761
2,wiwili,13.6268,-85.8254,24.59,84,64,1.02,NI,1727655762
3,anadyr,64.75,177.4833,5.28,86,75,5.0,RU,1727655764
4,port hueneme,34.1478,-119.1951,25.23,72,0,5.14,US,1727655103
5,bilibino,68.0546,166.4372,-1.43,86,99,1.55,RU,1727655767
6,mufulira,-12.5498,28.2407,20.17,31,4,1.64,ZM,1727655769
7,polyarnyy,69.1989,33.4478,2.87,83,100,7.15,RU,1727655770
8,afaahiti,-17.75,-149.2833,25.19,80,37,6.18,PF,1727655772
9,nikolayevsk-on-amure,53.1406,140.73,3.42,99,100,2.86,RU,1727655773
10,tiksi,71.6872,128.8694,-2.29,84,98,1.86,RU,1727655775
11,lepsy,46.235,78.9456,8.69,48,0,7.76,KZ,1727655777
12,iqaluit,63.7506,-68.5145,4.85,75,75,2.57,CA,1727655778
13,ilulissat,69.2167,-51.1,4.01,93,100,4.12,GL,1727655780
14,happy valley-goose bay,53.3168,-60.3315,14.17,77,75,4.12,CA,1727655781
15,papatowai,-46.5619,169.4708,15.49,48,47,1.25,NZ,1727655610
16,badger,64.8,-147.5333,12.14,48,0,2.06,US,1727655785
17,waitangi,-43.9535,-176.5597,10.46,72,28,3.58,NZ,1727655786
18,punta arenas,-53.15,-70.9167,1.06,55,0,4.12,CL,1727655788
19,adamstown,-25.066,-130.1015,19.27,58,11,3.86,PN,1727655789
20,vilyuysk,63.7553,121.6247,0.69,92,97,2.6,RU,1727655791
21,dryden,49.7833,-92.7503,18.16,45,20,5.14,CA,1727655793
22,klyuchi,52.2667,79.1667,9.05,38,100,4.64,RU,1727655794
23,port mathurin,-19.6833,63.4167,22.56,80,51,6.34,MU,1727655796
24,kingston,17.997,-76.7936,28.53,79,40,6.69,JM,1727655682
25,yellowknife,62.456,-114.3525,9.29,60,20,6.71,CA,1727655799
26,tura,25.5198,90.2201,23.46,97,69,1.23,IN,1727655803
27,hakui,36.8833,136.7833,26.25,75,100,0.91,JP,1727655804
28,grytviken,-54.2811,-36.5092,-2.46,76,65,3.28,GS,1727655549
29,kerikeri,-35.2268,173.9474,19.39,62,3,2.24,NZ,1727655807
30,puerto natales,-51.7236,-72.4875,-2.44,78,41,1.74,CL,1727655809
31,cidreira,-30.1811,-50.2056,18.98,90,0,9.04,BR,1727655811
32,chonchi,-42.6128,-73.8092,9.51,98,100,0.94,CL,1727655812
33,madinat ash shamal,26.1293,51.2009,30.15,58,0,4.72,QA,1727655814
34,edinburgh of the seven seas,-37.0676,-12.3116,14.68,92,99,16.1,SH,1727655816
35,nemuro,43.3236,145.575,15.41,86,67,5.16,JP,1727655817
36,port-aux-francais,-49.35,70.2167,1.25,62,90,10.95,TF,1727655819
37,lebu,-37.6167,-73.65,11.7,85,100,8.77,CL,1727655820
38,walvis bay,-22.9575,14.5053,11.53,66,0,2.06,NA,1727655822
39,bethel,41.3712,-73.414,15.58,88,98,0.44,US,1727655824
40,san patricio,28.017,-97.5169,27.97,33,0,1.59,US,1727655825
41,pyhajarvi,67.0701,27.2176,-0.3,97,55,1.83,FI,1727655827
42,panaba,21.2833,-88.2667,27.36,83,82,4.27,MX,1727655828
43,laojunmiao,39.8333,97.7333,0.7,58,0,0.31,CN,1727655830
44,unai,-16.3575,-46.9061,28.44,37,71,2.01,BR,1727655831
45,ust'-ilimsk,58.0006,102.6619,2.11,97,100,4.31,RU,1727655835
46,weno,7.4515,151.8468,31.97,70,20,3.6,FM,1727655836
47,susuman,62.7833,148.1667,-2.68,80,64,1.77,RU,1727655814
48,karymskoye,51.6167,114.35,1.49,63,59,4.26,RU,1727655839
49,blackmans bay,-43.0167,147.3167,14.29,57,54,1.34,AU,1727655841
50,port isabel,26.0734,-97.2086,29.45,69,0,3.6,US,1727655843
51,capitao poco,-1.7464,-47.0594,24.38,86,87,3.64,BR,1727655844
52,moyynkum,44.2914,72.9469,9.58,31,30,8.75,KZ,1727655846
53,fale old settlement,-9.3852,-171.2468,27.86,76,25,5.06,TK,1727655633
54,colby,39.3958,-101.0524,27.68,28,0,4.63,US,1727655797
55,zhijiang,30.4214,111.7533,23.11,67,100,6.47,CN,1727655851
56,gaalkacyo,6.7697,47.4308,25.36,69,100,6.03,SO,1727655852
57,kismayo,-0.3582,42.5454,24.84,84,45,4.23,SO,1727655854
58,bellavista,-7.0561,-76.5911,24.07,82,38,0.25,PE,1727655855
59,sabang,5.8933,95.3214,27.84,76,85,8.15,ID,1727655857
60,nadym,65.5333,72.5167,5.55,79,97,6.33,RU,1727655858
61,mount isa,-20.7333,139.5,28.87,21,0,5.66,AU,1727655860
62,afif,23.9065,42.9172,26.7,16,27,4.94,SA,1727655861
63,ushuaia,-54.8,-68.3,-1.19,74,40,7.72,AR,1727655863
64,pestravka,52.405,49.9583,12.5,37,73,3.35,RU,1727655865
65,port saint john's,-31.6229,29.5448,15.12,67,97,6.14,ZA,1727655866
66,khandyga,62.6667,135.6,0.25,92,100,3.82,RU,1727655868
67,hawaiian paradise park,19.5933,-154.9731,27.73,71,0,4.63,US,1727655750
68,buulobarde,3.8538,45.5674,24.94,76,65,3.6,SO,1727655871
69,malabar,-33.9667,151.25,18.98,79,71,0.45,AU,1727655873
70,kodiak,57.79,-152.4072,9.73,87,20,3.6,US,1727655874
71,whitehorse,60.7161,-135.0538,9.43,39,40,1.03,CA,1727655876
72,richards bay,-28.783,32.0377,17.38,90,100,7.65,ZA,1727655877
73,thinadhoo,0.5333,72.9333,28.03,77,100,4.49,MV,1727655879
74,bikenibeu village,1.3673,173.1241,30.98,62,75,3.09,KI,1727655880
75,qaqortoq,60.7167,-46.0333,5.31,77,98,2.09,GL,1727655732
76,borogontsy,62.6683,131.1683,1.04,99,100,2.59,RU,1727655884
77,antofagasta,-23.65,-70.4,15.6,75,65,0.74,CL,1727655887
78,necochea,-38.5473,-58.7368,19.72,61,100,6.26,AR,1727655888
79,amga,60.8953,131.9608,0.99,91,99,3.47,RU,1727655890
80,thompson,55.7435,-97.8558,18.09,55,40,2.57,CA,1727655686
81,santa ana de yacuma,-13.75,-65.4333,32.6,36,46,2.95,BO,1727655893
82,new norfolk,-42.7826,147.0587,14.95,62,75,3.94,AU,1727655895
83,gelendost,38.1208,31.0153,19.5,53,0,2.43,TR,1727655896
84,vilyuchinsk,52.9306,158.4028,16.15,80,100,7.84,RU,1727655898
85,keflavik,64.0049,-22.5624,2.24,87,0,6.17,IS,1727655900
86,balaipungut,1.05,101.2833,24.44,96,96,0.59,ID,1727655901
87,ribeira grande,38.5167,-28.7,24.32,93,100,7.6,PT,1727655903
88,pospelikha,51.95,81.7667,6.53,34,100,4.82,RU,1727655904
89,ust-nera,64.5667,143.2,-1.4,81,92,1.97,RU,1727655906
90,lompoc,34.6391,-120.4579,17.51,83,0,5.66,US,1727655908
91,az zuwaytinah,30.9522,20.1202,25.55,74,1,7.75,LY,1727655909
92,sai buri,6.7013,101.6168,25.84,89,49,1.16,TH,1727655911
93,al jawf,29.5,38.75,22.82,37,0,4.88,SA,1727655913
94,hassi messaoud,31.6804,6.0729,27.92,51,0,2.57,DZ,1727655914
95,martapura,-3.4167,114.85,25.05,94,20,1.03,ID,1727655916
96,trondheim,63.4305,10.3951,1.11,89,62,2.52,NO,1727655921
97,touros,-5.1989,-35.4608,24.96,77,66,7.74,BR,1727655922
98,hithadhoo,-0.6,73.0833,28.39,74,79,5.12,MV,1727655926
99,vila franca do campo,37.7167,-25.4333,24.23,92,100,5.41,PT,1727655927
100,west island,-12.1568,96.8225,25.99,83,40,6.17,CC,1727655929
101,anajatuba,-3.2644,-44.6197,25.45,82,97,4.17,BR,1727655930
102,bathsheba,13.2167,-59.5167,28.34,74,20,0.0,BB,1727655932
103,port elizabeth,-33.918,25.5701,12.16,58,0,10.29,ZA,1727655934
104,ashland,40.8167,-82.2665,19.43,98,100,4.27,US,1727655935
105,kerema,-7.9631,145.7785,28.16,77,59,3.19,PG,1727655937
106,hasaki,35.7333,140.8333,23.36,63,100,4.24,JP,1727655939
107,avarua,-21.2078,-159.775,24.03,69,75,3.6,CK,1727655940
108,olonkinbyen,70.9221,-8.7187,-1.66,64,100,4.26,SJ,1727655942
109,nouadhibou,20.931,-17.0347,26.99,50,32,7.72,MR,1727655943
110,georgetown,5.4112,100.3354,27.96,90,20,1.54,MY,1727655945
111,enewetak,11.3474,162.3373,28.51,76,100,5.15,MH,1727655947
112,puerto baquerizo moreno,-0.9,-89.6,20.37,90,88,6.72,EC,1727655948
113,invercargill,-46.4,168.35,15.57,55,9,0.89,NZ,1727655695
114,nova sintra,14.8667,-24.7167,28.01,81,80,1.96,CV,1727655952
115,coyhaique,-45.5752,-72.0662,1.79,99,100,1.06,CL,1727655953
116,longyearbyen,78.2186,15.6401,-0.09,86,20,6.17,SJ,1727655955
117,studley,52.2703,-1.8919,10.9,94,100,3.58,GB,1727655956
118,dudinka,69.4058,86.1778,7.37,96,100,4.44,RU,1727655958
119,labytnangi,66.6572,66.4183,5.32,80,74,4.39,RU,1727655959
120,coquimbo,-29.9533,-71.3436,12.85,77,20,2.57,CL,1727655961
121,novo aripuana,-5.1206,-60.3797,24.02,94,77,1.23,BR,1727655963
122,camden,39.7835,-74.9663,17.77,95,100,0.45,US,1727655964
123,bau,7.4053,124.6497,25.87,85,98,1.18,PH,1727655966
124,puerto ayora,-0.7393,-90.3518,20.31,96,95,2.68,EC,1727655967
125,birobidzhan,48.8,132.95,15.0,88,100,3.07,RU,1727655969
126,ulladulla,-35.35,150.4667,14.18,86,61,5.8,AU,1727655972
127,nilanga,18.1,76.7667,25.91,70,99,1.58,IN,1727655974
128,koidu,8.4167,-10.8333,21.93,100,100,0.93,SL,1727655976
129,kashin,57.3592,37.6081,8.99,83,100,2.58,RU,1727655977
130,petropavlovsk-kamchatsky,53.0452,158.6483,15.33,44,75,3.0,RU,1727655979
131,kazanskoye,55.6448,69.235,11.99,58,99,4.14,RU,1727655980
132,sitka,57.0531,-135.33,11.94,71,75,0.0,US,1727655982
133,east london,-33.0153,27.9116,12.89,60,35,8.19,ZA,1727655984
134,witu,-2.3889,40.4382,22.97,89,63,2.32,KE,1727655985
135,padang,-0.9492,100.3543,24.03,88,100,2.49,ID,1727655987
136,aitape,-3.1374,142.3475,30.08,63,58,1.06,PG,1727655731
137,macau,22.2006,113.5461,29.28,79,0,2.06,MO,1727655990
138,neiva,2.9273,-75.2819,28.94,54,40,2.57,CO,1727655991
139,santa ana,33.7456,-117.8678,28.82,55,20,3.6,US,1727655519
140,bredasdorp,-34.5322,20.0403,9.21,70,14,6.83,ZA,1727655995
141,itaituba,-4.2761,-55.9836,28.92,57,93,0.89,BR,1727655996
142,ghanzi,-21.5667,21.7833,17.37,29,26,6.0,BW,1727655958
143,margaret river,-33.95,115.0667,14.66,78,100,1.66,AU,1727656000
144,dundalk,39.2507,-76.5205,20.63,90,100,4.47,US,1727655834
145,puerto armuelles,8.2833,-82.8667,26.72,77,100,0.45,PA,1727656003
146,okhotsk,59.3833,143.3,5.25,48,27,7.85,RU,1727656004
147,novi sanzhary,49.3439,34.3108,14.4,38,45,3.95,UA,1727656006
148,tibagi,-24.5094,-50.4136,18.46,59,0,2.21,BR,1727656008
149,beypazari,40.1675,31.9211,18.67,42,2,1.38,TR,1727656009
150,shenjiamen,29.9576,122.298,25.76,87,0,4.02,CN,1727656011
151,talnakh,69.4865,88.3972,5.52,98,100,2.52,RU,1727656012
152,griffith,41.5284,-87.4237,21.08,76,100,4.63,US,1727655893
153,albany,42.6001,-73.9662,16.47,72,100,0.45,US,1727656016
154,saint-felicien,48.6501,-72.4491,15.38,63,20,4.12,CA,1727656017
155,lospalos,-8.5186,127.0025,27.31,59,20,5.16,TL,1727656019
156,nema,57.5067,50.5011,14.57,24,100,4.94,RU,1727656020
157,sahy,48.0741,18.9495,10.87,55,92,0.71,SK,1727656022
158,tsiombe,-25.3,45.4833,22.95,72,44,2.01,MG,1727656024
159,whakatane,-37.9585,176.9854,18.62,73,14,2.68,NZ,1727656025
160,aykhal,66.0,111.5,1.05,100,100,2.73,RU,1727656027
161,chimoio,-19.1164,33.4833,23.92,46,0,1.15,MZ,1727656029
162,praia da vitoria,38.7333,-27.0667,24.14,88,75,9.49,PT,1727656030
163,pula,44.8683,13.8481,13.31,54,0,7.2,HR,1727656032
164,college,64.8569,-147.8028,12.26,48,20,2.06,US,1727655844
165,ulsteinvik,62.3432,5.8487,8.07,68,84,5.39,NO,1727656035
166,nuuk,64.1835,-51.7216,5.34,100,100,19.55,GL,1727655957
167,berezovyy,51.6667,135.7,1.88,100,100,0.25,RU,1727656038
168,lihue,21.9789,-159.3672,28.77,67,0,5.66,US,1727656040
169,nekrasovskoye,57.6766,40.3657,9.94,100,100,2.0,RU,1727656041
170,woods creek,47.8787,-121.8985,15.8,59,31,2.58,US,1727656044
171,shingu,33.7333,135.9833,22.39,90,100,4.7,JP,1727656046
172,saipan,15.1355,145.701,32.39,66,40,5.14,MP,1727655949
173,usogorsk,63.4106,48.6872,7.05,91,99,2.64,RU,1727656049
174,quezon,7.7303,125.0989,25.93,84,100,0.21,PH,1727656051
175,wailua homesteads,22.0669,-159.378,28.44,72,0,5.66,US,1727656052
176,hamilton,39.1834,-84.5333,21.08,94,100,2.57,US,1727656054
177,tazovsky,67.4667,78.7,7.03,97,100,4.99,RU,1727656055
178,udachny,66.4167,112.4,-1.01,96,100,4.58,RU,1727656057
179,gua musang,4.8823,101.9644,23.48,97,79,0.43,MY,1727656058
180,shiguai,40.7058,110.2856,6.61,67,100,4.93,CN,1727656060
181,saldanha,-33.0117,17.9442,7.03,70,22,5.87,ZA,1727656062
182,rio grande,-32.035,-52.0986,17.84,88,3,5.28,BR,1727656063
183,muisne,0.6,-80.0333,24.0,83,96,3.57,EC,1727656065
184,boende,-0.2167,20.8667,21.1,96,85,1.07,CD,1727656066
185,burgersdorp,-30.9977,26.3286,4.99,42,39,2.1,ZA,1727656068
186,valabhipur,21.8833,71.8667,25.23,90,98,2.84,IN,1727656070
187,sinop,41.7711,34.8709,18.8,49,0,3.51,TR,1727656071
188,hami,42.8,93.45,6.83,29,0,4.47,CN,1727656073
189,mont-dore,-22.2833,166.5833,25.56,99,39,7.61,NC,1727656075
190,baiyin,36.5583,104.2081,7.98,60,100,4.75,CN,1727656076
191,hanceville,34.0607,-86.7675,22.31,94,90,1.51,US,1727656078
192,kifri,34.6959,44.9661,27.27,23,0,7.57,IQ,1727656081
193,la manga del mar menor,37.6413,-0.7165,20.15,69,3,4.3,ES,1727656083
194,sisimiut,66.9395,-53.6735,5.16,87,100,9.46,GL,1727656084
195,yorkton,51.2167,-102.4677,23.91,46,0,4.12,CA,1727656086
196,huoqiu chengguanzhen,32.3547,116.2939,24.43,82,61,2.62,CN,1727656088
197,rundu,-17.9333,19.7667,23.11,20,26,4.4,NA,1727656089
198,jamsa,61.8642,25.19,3.4,84,19,3.25,FI,1727656091
199,vylkove,45.4021,29.586,15.63,73,72,5.6,UA,1727656093
200,eket,4.6412,7.9209,24.4,93,84,2.22,NG,1727656094
201,las matas de farfan,18.8731,-71.5166,23.95,86,100,1.22,DO,1727656096
202,tongchuanshi,35.0806,109.0897,12.45,60,100,3.14,CN,1727656097
203,minas de marcona,-15.2119,-75.1103,12.92,81,55,4.43,PE,1727656035
204,strezhevoy,60.7333,77.5889,10.22,92,97,6.06,RU,1727656100
205,newman,37.3138,-121.0208,34.66,16,0,3.44,US,1727655812
206,itamaraca,-7.7478,-34.8256,24.88,79,94,4.93,BR,1727656104
207,santa cruz,-17.8,-63.1667,27.7,65,11,2.06,BO,1727655937
208,isafjordur,66.0755,-23.124,2.02,75,40,5.66,IS,1727656107
209,singkawang,0.9,109.0,25.53,86,74,1.85,ID,1727656109
210,nicoya,10.1483,-85.452,23.37,96,100,1.2,CR,1727656110
211,chibougamau,49.9168,-74.3659,11.79,76,100,4.63,CA,1727656112
212,saint-francois,46.4154,3.9054,12.03,89,0,0.0,FR,1727656113
213,jamestown,42.097,-79.2353,20.01,89,100,0.89,US,1727656115
214,mao,39.8885,4.2658,19.31,72,0,1.54,ES,1727656116
215,kuusamo,65.9667,29.1833,1.02,80,0,3.09,FI,1727656118
216,kendari,-3.945,122.4989,28.51,68,99,0.82,ID,1727656119
217,mukalla,14.5425,49.1242,25.81,85,83,4.85,YE,1727656121
218,kone,-21.0595,164.8658,30.75,48,9,2.48,NC,1727656122
219,kiama,-34.6833,150.8667,17.36,80,61,2.68,AU,1727656124
220,tank,32.2217,70.3793,30.29,46,1,0.32,PK,1727656126
221,masterton,-40.9597,175.6575,16.38,54,33,1.27,NZ,1727656127
222,palmer,42.1584,-72.3287,14.73,86,75,1.54,US,1727656129
223,kapa'a,22.0752,-159.319,29.18,69,0,5.66,US,1727656132
224,bubaque,11.2833,-15.8333,27.34,80,69,4.86,GW,1727656134
225,tsengel,49.4783,100.8894,-4.18,60,54,2.19,MN,1727656135
226,smithers,54.7804,-127.1743,8.18,76,20,2.06,CA,1727656137
227,banda aceh,5.5577,95.3222,25.84,81,76,4.95,ID,1727656138
228,nuevitas,21.5453,-77.2644,27.17,90,98,4.54,CU,1727656140
229,inarajan village,13.2736,144.7484,31.54,85,48,6.17,GU,1727656142
230,kristiansund,63.1115,7.732,7.85,81,75,1.54,NO,1727656143
231,ambodifotatra,-16.9833,49.85,23.66,81,42,3.53,MG,1727656145
232,lerwick,60.1545,-1.1494,10.96,87,100,7.38,GB,1727656146
233,balabac,7.9868,117.0645,27.56,78,100,0.89,PH,1727656148
234,souillac,-20.5167,57.5167,22.21,78,40,3.6,MU,1727656150
235,miandrivazo,-19.5167,45.4667,25.03,63,0,0.68,MG,1727656151
236,takum,7.2667,9.9833,21.5,96,22,1.01,NG,1727656153
237,salinopolis,-0.6136,-47.3561,26.92,80,83,5.48,BR,1727656154
238,miles city,46.4083,-105.8406,33.54,14,0,5.14,US,1727656156
239,neryungri,56.6709,124.6491,-0.96,78,99,4.17,RU,1727656159
240,sayan,-11.1361,-77.1933,21.08,69,48,1.37,PE,1727656162
241,dunedin,-45.8742,170.5036,15.45,65,30,3.58,NZ,1727656164
242,sinjai,-5.1241,120.253,28.51,68,95,2.62,ID,1727656165
243,tobruk,32.0836,23.9764,24.52,70,2,10.31,LY,1727656169
244,montagu,-40.7667,144.9667,13.47,68,2,5.89,AU,1727656172
245,calatayud,41.3535,-1.6432,17.91,39,9,1.64,ES,1727656174
246,mancora,-4.1078,-81.0475,22.45,72,88,7.15,PE,1727656175
247,karaidel',55.8337,56.9069,9.38,47,96,3.37,RU,1727656177
248,utrik,11.2278,169.8474,28.54,76,76,3.64,MH,1727656178
249,tralee,52.2704,-9.7026,11.35,94,100,3.64,IE,1727656180
250,barah,13.7,30.3667,27.72,57,85,7.33,SD,1727656182
251,la junta,37.985,-103.5438,29.16,18,0,7.2,US,1727656183
252,hobyo,5.3505,48.5268,24.7,89,37,5.56,SO,1727656185
253,mount gambier,-37.8333,140.7667,15.43,62,18,4.41,AU,1727656186
254,mek'ele,13.4967,39.4753,17.28,46,83,2.87,ET,1727656188
255,dolinsk,47.35,142.8,17.17,70,93,5.43,RU,1727656190
256,shihezi,44.3,86.0333,7.19,39,0,2.41,CN,1727656191
257,ardmore,34.1743,-97.1436,28.72,35,0,0.0,US,1727656193
258,zaozersk,69.4005,32.4476,1.78,86,99,9.44,RU,1727656195
259,jinghong,21.991,100.7341,22.32,89,96,0.46,CN,1727656198
260,bogo,11.0517,124.0055,28.89,68,100,1.76,PH,1727656199
261,iskateley,67.6803,53.1512,3.97,91,97,7.67,RU,1727656201
262,aasiaat,68.7098,-52.8699,3.16,96,100,12.42,GL,1727656203
263,howard springs,-12.497,131.047,31.6,73,55,3.26,AU,1727656204
264,ixtapa,20.7,-105.2,28.46,100,100,2.57,MX,1727656206
265,sosnovo-ozerskoye,52.5249,111.5418,-0.46,54,7,6.68,RU,1727656207
266,port lincoln,-34.7333,135.8667,17.26,60,0,4.41,AU,1727656209
267,papao,-17.75,-149.55,28.82,75,13,5.26,PF,1727656211
268,scarborough,54.2797,-0.4044,13.14,79,100,5.36,GB,1727656212
269,sinfra,6.6167,-5.9167,21.59,100,100,1.33,CI,1727656215
270,howell,42.6073,-83.9294,20.55,85,42,2.8,US,1727656217
271,mahibadhoo,3.7833,72.9667,28.02,76,100,3.9,MV,1727656219
272,colonia,50.9333,6.95,11.65,69,0,2.57,DE,1727656220
273,mugia,43.1041,-9.2179,16.62,97,100,2.61,ES,1727656222
274,basoko,1.2391,23.616,22.1,82,97,0.35,CD,1727656224
275,dawei,14.0833,98.2,26.91,86,100,0.79,MM,1727656225
276,holualoa,19.6228,-155.9522,26.57,85,42,3.22,US,1727656228
277,la ronge,55.1001,-105.2842,12.14,66,100,5.14,CA,1727656230
278,darwin,-12.4611,130.8418,31.64,55,0,4.12,AU,1727655723
279,alofi,-19.0595,-169.9187,25.94,65,75,8.23,NU,1727656233
280,guane,22.2025,-84.0875,26.22,87,100,2.53,CU,1727656235
281,kyshtovka,56.555,76.6271,10.8,72,100,4.29,RU,1727656236
282,naze,28.3667,129.4833,26.51,80,7,4.83,JP,1727656238
283,mossel bay,-34.1831,22.146,9.96,65,29,8.71,ZA,1727656213
284,mount pearl,47.5166,-52.7813,13.41,95,75,1.54,CA,1727656243
285,pacific grove,36.6177,-121.9166,17.82,91,40,3.6,US,1727656244
286,marine corps base hawaii - mcbh,21.4453,-157.7513,30.98,67,75,2.57,US,1727656246
287,vila velha,-20.3297,-40.2925,22.97,93,100,2.68,BR,1727656248
288,san antonio de pale,-1.4014,5.6325,25.27,78,70,4.49,GQ,1727656249
289,kalifornsky,60.4183,-151.29,13.0,59,20,5.14,US,1727656251
290,marquelia,16.5833,-98.8167,25.22,89,100,1.39,MX,1727656252
291,makoua,0.0069,15.6333,22.4,94,100,1.09,CG,1727656254
292,taungdwingyi,20.0167,95.55,26.12,92,100,2.64,MM,1727656256
293,novodvinsk,64.4165,40.8122,3.86,92,0,3.92,RU,1727656257
294,petrozavodsk,61.7849,34.3469,3.7,93,56,3.0,RU,1727656259
295,gilgit,35.9221,74.3087,17.78,49,0,1.05,PK,1727656261
296,flying fish cove,-10.4217,105.6791,26.82,89,100,6.17,CX,1727656262
297,mejit,10.2753,170.8646,28.33,74,95,2.97,MH,1727656264
298,bisingen,48.3101,8.9174,8.01,88,100,2.03,DE,1727656265
299,betton,48.1805,-1.6383,14.99,94,100,5.14,FR,1727656267
300,lazaro cardenas,17.9583,-102.2,27.52,81,72,1.74,MX,1727655994
301,yuzhno-kurilsk,44.0306,145.8556,16.43,82,67,5.21,RU,1727656270
302,sultanah,24.4926,39.5857,32.25,11,0,2.57,SA,1727656271
303,cabo san lucas,22.8909,-109.9124,27.64,89,100,3.13,MX,1727656037
304,gebeit,21.0667,36.3167,25.3,45,7,2.3,SD,1727656275
305,port alfred,-33.5906,26.891,12.5,56,2,11.57,ZA,1727656276
306,atafu village,-8.5421,-172.5159,27.72,78,24,4.01,TK,1727656278
307,hilo,19.7297,-155.09,27.85,74,0,4.63,US,1727656039
308,furstenwalde,52.3667,14.0667,8.79,66,100,2.38,DE,1727656281
309,la sarre,48.8002,-79.1996,9.33,87,0,2.64,CA,1727656283
310,labrador city,52.9463,-66.9114,6.95,77,20,6.71,CA,1727656284
311,grand baie,-20.0182,57.5802,22.47,76,0,0.89,MU,1727656286
312,kahramanmaras,38.0,37.0,15.03,48,0,2.07,TR,1727656289
313,concepcion,-36.827,-73.0498,11.89,94,100,6.17,CL,1727656291
314,beaconsfield,45.4334,-73.8659,18.88,89,0,2.78,CA,1727656292
315,pechora,65.1472,57.2244,10.31,82,100,7.32,RU,1727656294
316,akhmet'a,42.0311,45.2075,9.72,49,0,1.96,GE,1727656295
317,egilsstadir,65.2653,-14.3948,4.95,65,75,9.26,IS,1727656295
318,kenora,49.8167,-94.4337,20.54,45,20,6.71,CA,1727656260
319,tadine,-21.55,167.8833,25.11,72,94,4.96,NC,1727656300
320,swift current,50.2834,-107.8014,20.45,37,75,5.14,CA,1727656302
321,almeirim,-1.5233,-52.5817,29.47,50,16,3.1,BR,1727656304
322,at taj,24.2049,23.2857,23.75,35,0,3.79,LY,1727656305
323,ninh binh,20.2539,105.975,28.0,84,99,0.63,VN,1727656307
324,paita,-5.0892,-81.1144,17.87,89,100,6.88,PE,1727656308
325,las tablas,7.7667,-80.2833,23.99,99,100,0.69,PA,1727656310
326,urgup,38.6304,34.9116,16.95,56,0,2.7,TR,1727656312
327,mumford,5.2618,-0.759,24.36,86,100,3.93,GH,1727656313
328,witnica,52.6732,14.8977,7.15,68,87,2.71,PL,1727656315
329,montevideo,-34.8335,-56.1674,19.84,83,0,2.57,UY,1727656317
330,najran,17.4924,44.1277,21.19,20,84,0.6,SA,1727656318
331,amnat charoen,15.9167,104.75,27.15,82,42,3.83,TH,1727656320
332,kavieng,-2.5744,150.7967,28.14,77,100,5.62,PG,1727656321
333,mogadishu,2.0371,45.3438,25.92,82,20,3.91,SO,1727656323
334,nova vicosa,-17.8919,-39.3719,23.29,77,61,3.14,BR,1727656324
335,kuala belait,4.5833,114.1833,27.08,84,100,2.54,BN,1727656326
336,ovruch,51.3246,28.8035,9.57,70,100,7.2,UA,1727656328
337,anloga,5.7947,0.8973,25.29,82,17,5.59,GH,1727656329
338,zhangjiajie,29.1294,110.4783,24.8,91,100,2.63,CN,1727656331
339,san fernando,15.0286,120.6898,26.85,75,100,5.62,PH,1727656333
340,nar'yan-mar,67.6713,53.087,3.92,92,99,7.72,RU,1727656334
341,bryne,58.7354,5.6477,8.81,88,20,4.12,NO,1727656336
342,constantia,44.1833,28.65,11.5,89,100,10.32,RO,1727656338
343,la mira,18.035,-102.3266,25.19,89,98,1.1,MX,1727656339
344,albertina,-22.2008,-46.6158,21.81,52,53,4.14,BR,1727656341
345,tofol,5.3248,163.0078,29.88,79,75,1.03,FM,1727656342
346,mweka,-4.85,21.5667,19.89,99,86,1.1,CD,1727656344
347,quthing,-30.4,27.7003,5.46,55,0,1.77,LS,1727656346
348,sao pedro do sul,-29.6206,-54.1789,19.65,78,6,2.25,BR,1727656347
349,kwang binh,17.4833,106.6,29.38,74,99,2.37,VN,1727656349
350,tanout,14.9709,8.8879,31.98,22,78,4.26,NE,1727656351
351,wabag,-5.4781,143.7021,20.47,69,100,1.93,PG,1727656352
352,livingston,55.9029,-3.5226,8.53,89,0,4.12,GB,1727656354
353,tangalle,6.024,80.7911,25.75,86,100,0.62,LK,1727656355
354,talakan,50.3167,130.3667,4.74,93,100,5.14,RU,1727656357
355,mopti,14.6667,-4.0,31.28,48,1,2.75,ML,1727656359
356,inonu,37.3167,33.7667,18.59,46,0,4.16,TR,1727656360
357,beloyarskiy,63.7119,66.6722,9.21,96,100,2.81,RU,1727656362
358,uturoa,-16.7333,-151.4333,26.9,74,15,5.49,PF,1727656363
359,fuding,27.3273,120.214,27.23,80,54,2.18,CN,1727656365
360,gustavsberg,59.3268,18.3898,-0.06,65,0,2.43,SE,1727656367
361,grande prairie,55.1667,-118.8027,10.1,43,75,5.66,CA,1727656368
362,ola,59.5833,151.2833,6.94,49,6,8.96,RU,1727656370
363,gewane,10.1664,40.6453,27.99,46,100,3.89,ET,1727656372
364,libreville,0.3925,9.4537,23.01,100,40,2.06,GA,1727656373
365,benalla,-36.55,145.9833,16.54,51,0,3.41,AU,1727656375
366,katsuren-haebaru,26.3369,127.8719,29.01,84,75,5.66,JP,1727656377
367,kenai,60.5544,-151.2583,12.86,59,75,5.14,US,1727656378
368,tidjikja,18.5564,-11.4271,31.31,30,97,6.3,MR,1727656271
369,assab,13.0092,42.7394,29.84,79,91,7.47,ER,1727656381
370,saraykoy,37.9245,28.9252,21.58,44,1,1.8,TR,1727656383
371,geraldton,-28.7667,114.6,12.23,82,0,3.6,AU,1727656386
372,nongstoin,25.5167,91.2667,19.54,96,93,0.64,IN,1727656388
373,saint-philippe,-21.3585,55.7679,21.46,80,21,5.1,RE,1727656390
374,brookings,44.3114,-96.7984,24.03,47,0,4.47,US,1727656255
375,champerico,14.3,-91.9167,25.84,88,99,1.9,GT,1727656393
376,mohr,54.3528,9.7167,9.08,86,100,2.57,DE,1727656395
377,colon,9.3592,-79.9014,25.61,66,100,4.47,PA,1727656396
378,tolanaro,-25.0319,46.9987,23.04,83,0,3.09,MG,1727656398
379,abepura,-2.6333,140.5833,29.45,74,20,3.09,ID,1727656399
380,itoman,26.1247,127.6694,29.01,84,75,3.6,JP,1727656401
381,acarau,-2.8856,-40.12,25.43,83,100,9.43,BR,1727656403
382,illizi,26.4833,8.4667,31.02,21,2,8.45,DZ,1727656404
383,portland,45.5234,-122.6762,20.37,49,0,3.09,US,1727655749
384,fort mcmurray,56.7268,-111.381,10.77,76,100,3.09,CA,1727656138
385,leh,34.1667,77.5833,6.49,39,0,1.49,IN,1727656409
386,nuku'alofa,-21.1333,-175.2,26.19,78,75,4.12,TO,1727656411
387,arraial do cabo,-22.9661,-42.0278,21.85,82,0,8.6,BR,1727656412
388,uniara,26.15,75.2167,26.29,76,98,1.13,IN,1727656414
389,daru,-9.0763,143.2092,27.89,65,7,6.83,PG,1727656416
390,montepuez,-13.1256,38.9997,18.71,91,5,2.78,MZ,1727656419
391,konosha,60.9736,40.257,5.13,97,99,2.35,RU,1727656421
392,prince george,53.9166,-122.753,10.16,51,75,3.09,CA,1727656264
393,vorgashor,67.5833,63.95,4.16,93,92,4.85,RU,1727656424
394,katpur,21.05,71.7833,25.87,85,96,2.14,IN,1727656425
395,pangody,65.85,74.4859,6.82,79,94,5.86,RU,1727656427
396,kayangel,8.0823,134.7173,29.09,76,15,5.76,PW,1727656429
397,crane,31.3974,-102.3501,26.58,25,0,4.19,US,1727656426
398,tazacorte,28.629,-17.9293,20.54,90,0,3.6,ES,1727656432
399,camocim,-2.9022,-40.8411,25.68,80,80,9.0,BR,1727656433
400,gopalganj,26.4667,84.4333,25.63,86,88,1.5,IN,1727656435
401,mojo,8.6,39.1167,14.87,86,92,1.37,ET,1727656437
402,west sayville,40.7279,-73.0976,16.74,91,75,3.09,US,1727656440
403,cole harbour,44.6724,-63.4751,13.85,86,1,0.45,CA,1727656442
404,patterson,37.4716,-121.1297,30.97,41,0,4.18,US,1727656443
405,burang,30.25,81.1667,5.88,67,100,0.81,CN,1727656445
406,lloydminster,53.2835,-110.0016,8.12,93,100,6.17,CA,1727656303
407,kosti,13.1629,32.6635,26.24,68,77,7.59,SD,1727656448
408,laguna,38.421,-121.4238,31.73,31,0,2.57,US,1727656450
409,coahuayana de hidalgo,18.7,-103.6583,25.63,91,93,0.69,MX,1727656451
410,pskov,57.8136,28.3496,0.95,100,0,2.0,RU,1727656453
411,menongue,-14.6585,17.691,18.06,33,26,1.21,AO,1727656454
412,lagunas,-5.2269,-75.6753,27.4,61,99,1.99,PE,1727656456
413,karema,-6.8205,30.4389,26.35,67,100,5.71,TZ,1727656457
414,selfoss,63.9331,-20.9971,1.21,85,52,4.46,IS,1727656459
415,tibanbang,6.6315,126.1055,28.23,74,85,1.0,PH,1727656461
416,havre,49.5833,0.3333,13.87,82,100,6.17,FR,1727656462
417,ceres,37.5949,-120.9577,30.97,33,0,5.14,US,1727656206
418,wad medani,14.4012,33.5199,27.73,65,47,8.03,SD,1727656465
419,road town,18.4167,-64.6167,28.02,83,20,3.09,VG,1727656467
420,st. john's,47.5649,-52.7093,13.87,95,75,1.79,CA,1727656204
421,bel ombre,-4.6167,55.4167,26.91,89,75,5.14,SC,1727656470
422,mme-bafumen,6.3333,10.2333,16.64,92,90,1.01,CM,1727656474
423,prainha,-1.8,-53.48,29.18,47,13,1.91,BR,1727656475
424,queenstown,-31.8976,26.8753,5.34,57,0,3.46,ZA,1727656477
425,bardai,11.65,7.2333,22.14,82,3,1.94,NG,1727656478
426,codrington,-38.2667,141.9667,16.45,59,0,5.81,AU,1727656480
427,eyl,7.9803,49.8164,24.59,85,51,5.41,SO,1727656482
428,phalia,32.4297,73.5775,25.74,66,0,0.95,PK,1727656483
429,urengoy,65.9667,78.3667,8.68,94,100,5.39,RU,1727656485
430,pasni,25.2631,63.471,26.67,86,5,4.67,PK,1727656486
431,biscarrosse,44.3945,-1.1672,15.97,88,100,0.0,FR,1727656488
432,stutterheim,-32.5708,27.424,4.51,86,0,1.77,ZA,1727656490
433,guatrache,-37.6678,-63.5302,19.08,54,100,1.99,AR,1727656491
434,port macquarie,-31.4333,152.9167,17.82,91,100,0.89,AU,1727656345
435,hirara,24.8,125.2833,29.92,94,75,7.2,JP,1727656494
436,island harbour,50.724,-1.2758,14.45,92,100,8.05,GB,1727656496
437,meadow lake,34.8014,-106.5436,27.1,35,12,1.81,US,1727656497
438,porto velho,-8.7619,-63.9039,26.03,78,20,0.0,BR,1727656499
439,roi et,15.75,103.75,27.85,81,99,2.72,TH,1727656501
440,punta del este,-34.9667,-54.95,19.06,85,0,3.6,UY,1727656502
441,lata,40.1629,-8.3327,13.3,58,0,1.52,PT,1727656506
442,lebanon,36.2081,-86.2911,20.05,92,100,0.0,US,1727656507
443,nuevo ideal,24.8875,-105.0728,17.58,50,13,3.84,MX,1727656509
444,pisco,-13.7,-76.2167,16.03,88,100,7.2,PE,1727656510
445,charlottetown,46.2352,-63.1267,13.29,89,20,3.09,CA,1727656512
446,broome,42.2506,-75.833,17.01,85,100,1.54,US,1727656514
447,sebeta,8.9167,38.6167,15.02,85,68,1.46,ET,1727656517
448,kill devil hills,36.0307,-75.676,24.43,93,100,1.54,US,1727656519
449,floro,61.5996,5.0328,7.98,87,100,6.69,NO,1727656520
450,hadibu,12.65,54.0333,25.75,81,84,3.89,YE,1727656522
451,slave lake,55.2834,-114.769,7.99,81,100,4.12,CA,1727656524
452,al hillah,32.4801,44.4353,26.11,28,0,3.46,IQ,1727656525
453,cold lake,54.4502,-110.2017,9.97,71,100,5.66,CA,1727656508
454,sursee,47.1667,8.1,9.39,94,100,0.0,CH,1727656528
455,port blair,11.6667,92.75,25.02,88,40,0.51,IN,1727656530
456,remire-montjoly,4.9167,-52.2667,28.02,78,0,3.09,GF,1727656532
457,taro,-8.3862,115.28,26.38,67,35,1.44,ID,1727656533
458,magdalena de kino,30.6333,-110.95,33.22,15,0,4.29,MX,1727656535
459,winton,37.3894,-120.6133,30.55,37,0,0.45,US,1727656536
460,payakumbuh,-0.2202,100.6308,24.26,89,100,0.52,ID,1727656538
461,paripiranga,-10.6875,-37.8617,18.94,96,76,3.21,BR,1727656540
462,salekhard,66.53,66.6019,5.99,81,100,3.62,RU,1727656322
463,zhuanghe,39.7008,122.9911,21.91,83,95,2.04,CN,1727656543
464,collie,-33.3667,116.15,16.53,59,8,1.08,AU,1727656545
465,shahrud,36.4182,54.9763,9.99,72,7,2.03,IR,1727656546
466,luderitz,-26.6481,15.1594,10.85,59,0,8.65,NA,1727656548
467,tianpeng,30.9866,103.9393,15.98,93,100,1.76,CN,1727656549
468,jumla,29.2747,82.1838,12.01,86,100,1.86,NP,1727656551
469,vorkuta,67.5,64.0,4.69,92,100,5.23,RU,1727656553
470,mbandaka,0.0487,18.2603,20.87,95,95,0.42,CD,1727656554
471,caxito,-8.5785,13.6643,22.54,88,60,1.15,AO,1727656556
472,port douglas,-16.4833,145.4667,26.55,64,61,3.06,AU,1727656557
473,haiku-pauwela,20.9219,-156.3051,28.47,66,17,12.96,US,1727656559
474,waddan,29.1614,16.139,23.27,73,0,3.34,LY,1727656561
475,kotabumi,-4.8333,104.9,28.02,69,100,1.96,ID,1727656562
476,salinas,36.6777,-121.6555,18.77,76,0,5.66,US,1727656457
477,ambon,-3.6954,128.1814,29.08,74,40,2.06,ID,1727656566
478,tobelo,1.7284,128.0095,29.32,70,36,1.4,ID,1727656567
479,pacocha,-17.5833,-71.3333,15.96,89,80,1.01,PE,1727656569
480,kailua-kona,19.6406,-155.9956,28.64,85,34,0.89,US,1727656324
481,leticia,-4.2153,-69.9406,25.03,94,75,2.06,CO,1727656572
482,sungai penuh,-2.0833,101.3833,22.21,82,75,0.09,ID,1727656574
483,sarupathar,26.1984,93.8094,24.69,97,98,0.82,IN,1727656575
484,carnarvon,-24.8667,113.6333,21.8,34,0,7.98,AU,1727656577
485,bomdila,27.25,92.4,11.19,98,100,0.19,IN,1727656579
486,alice springs,-23.7,133.8833,19.75,24,20,8.75,AU,1727656580
487,grabo,57.8363,12.2995,7.49,87,100,3.09,SE,1727656582
488,al bayda',32.7627,21.7551,18.78,68,86,8.18,LY,1727656584
489,lucapa,-8.4192,20.7447,19.42,86,13,1.45,AO,1727656585
490,natal,-5.795,-35.2094,25.36,73,20,6.69,BR,1727656587
491,wuwei,37.9281,102.6414,6.44,44,98,5.41,CN,1727656588
492,sittwe,20.15,92.9,27.0,88,78,3.22,MM,1727656590
493,kayyerkan,69.3786,87.7439,7.32,97,100,4.87,RU,1727656592
494,tabas,33.5959,56.9244,21.12,24,1,2.06,IR,1727656593
495,westport,41.1415,-73.3579,16.98,88,100,2.57,US,1727656595
496,nagqu,31.5,92.0,3.68,68,7,1.44,CN,1727656597
497,marrakesh,31.6315,-8.0083,25.75,53,0,2.57,MA,1727656600
498,barcelos,41.5388,-8.6151,14.98,62,20,1.42,PT,1727656601
499,jayapura,-2.5333,140.7,29.66,57,6,1.65,ID,1727656603
500,santa maria,-29.6842,-53.8069,20.61,94,0,1.03,BR,1727656605
501,ahiri,19.4,80.0167,24.06,95,11,1.08,IN,1727656606
502,conceicao da barra,-18.5933,-39.7322,22.86,84,100,2.26,BR,1727656608
503,ongjin,37.9347,125.3619,23.28,61,100,4.47,KP,1727656609
504,hengchun,22.0042,120.7439,25.03,92,100,7.69,TW,1727656611
505,la passe,45.5549,-0.8967,17.38,89,18,7.04,FR,1727656613
506,cooper's town,26.8667,-77.5167,28.54,79,100,4.6,BS,1727656614
507,terenos,-20.4422,-54.8603,30.84,39,0,2.57,BR,1727656616
508,turabah,21.2141,41.6331,26.54,17,5,2.99,SA,1727656618
509,mullovka,54.2,49.4,12.59,46,100,3.65,RU,1727656619
510,puqi,29.7167,113.8833,28.0,57,72,5.86,CN,1727656621
511,mtwara,-10.2667,40.1833,22.62,85,11,2.2,TZ,1727656622
512,nabire,-3.3667,135.4833,27.57,81,90,1.12,ID,1727656624
513,ta`u,-14.2336,-169.5144,26.72,81,27,8.49,AS,1727656629
514,barclayville,4.6797,-8.2339,24.17,89,98,2.04,LR,1727656630
515,savelugu,9.6244,-0.8253,23.96,87,38,1.96,GH,1727656632
516,pahrump,36.2083,-115.9839,30.81,10,0,1.75,US,1727656635
517,spanish springs,39.6491,-119.7074,29.84,12,0,2.06,US,1727656637
518,batie,9.8833,-2.9167,24.1,88,87,1.47,BF,1727656638
519,el reno,35.5323,-97.955,27.69,35,0,2.06,US,1727656640
520,seydi,39.4816,62.9137,17.49,18,75,3.87,TM,1727656642
521,nantucket,41.2835,-70.0995,15.64,94,20,2.57,US,1727656647
522,port allen,30.4521,-91.2101,27.24,67,58,1.76,US,1727656648
523,newnham,-41.3833,147.1333,14.53,54,11,7.2,AU,1727656650
524,port augusta,-32.5,137.7667,17.6,49,0,3.21,AU,1727656651
525,alasehir,38.3508,28.5172,20.18,64,100,1.73,TR,1727656653
526,ancud,-41.8697,-73.8203,9.95,95,100,4.83,CL,1727656655
527,abaza,52.655,90.0928,3.13,54,100,2.2,RU,1727656656
528,argo,37.6333,22.7333,17.88,71,0,1.98,GR,1727656658
529,delvada,20.7667,71.0333,25.42,86,100,1.78,IN,1727656659
530,urangan,-25.3,152.9,22.9,69,0,1.48,AU,1727656661
531,fuglafjordur,62.244,-6.814,9.74,81,100,5.66,FO,1727656663
532,naracoorte,-36.9579,140.7383,17.44,56,38,5.58,AU,1727656664
533,akureyri,65.6835,-18.0878,2.96,87,75,3.09,IS,1727656666
534,lae,-6.7221,146.9847,27.49,67,36,3.51,PG,1727656667
535,veigne,47.2856,0.7408,14.23,81,100,5.81,FR,1727656669
536,al kawa,13.7463,32.4996,28.18,46,54,8.11,SD,1727656671
537,mariehamn,60.0973,19.9348,-1.08,100,0,0.51,AX,1727656672
538,fortaleza,-3.7227,-38.5247,27.82,89,40,5.66,BR,1727656674
539,yaren,-0.5472,166.916,28.43,72,100,5.17,NR,1727656675
540,oranjemund,-28.55,16.4333,11.54,75,1,3.54,NA,1727656677
541,horta,38.5333,-28.6333,23.9,93,100,7.6,PT,1727656679
542,serhiyivka,46.0272,30.3768,17.68,80,64,1.38,UA,1727656680
543,mgandu,-5.95,34.1333,21.26,55,100,1.4,TZ,1727656682
544,dwarka,22.2394,68.9678,27.31,84,12,4.19,IN,1727656684
545,andreapol',56.6513,32.2664,6.11,74,100,2.11,RU,1727656685
546,shitanjing,39.2342,106.3439,6.95,40,0,9.63,CN,1727656689
547,yulinshi,38.2906,109.7494,11.06,55,98,7.0,CN,1727656690
548,puerto deseado,-47.7503,-65.8938,4.86,64,100,5.93,AR,1727656692
549,carbonear,47.7332,-53.2148,12.97,93,7,2.37,CA,1727656695
550,lorengau,-2.0226,147.2712,28.47,78,65,2.36,PG,1727656697
551,dadukou,26.5479,101.7054,23.19,82,100,0.68,CN,1727656698
552,amble,55.3333,-1.5833,12.08,82,75,7.72,GB,1727656700
553,moose jaw,50.4001,-105.5344,25.14,25,100,8.75,CA,1727656702
554,molalla,45.1473,-122.577,18.62,48,0,4.02,US,1727656703
555,bull savanna,17.8868,-77.5902,25.58,84,100,4.51,JM,1727656705
556,greenville,35.6127,-77.3663,24.51,89,100,1.31,US,1727656706
557,ebon,4.582,168.6964,28.14,73,100,2.61,MH,1727656708
558,trincomalee,8.5711,81.2335,25.17,89,100,4.19,LK,1727656710
559,benguela,-12.5763,13.4055,21.88,87,13,0.61,AO,1727656711
560,huancavelica,-12.7667,-74.9833,3.75,90,97,2.16,PE,1727656713
561,chui,-33.6971,-53.4616,14.99,97,98,2.78,UY,1727656714
562,nianzishan,47.5167,122.8833,7.67,53,17,6.76,CN,1727656716
563,tandil,-37.3217,-59.1332,18.46,69,92,6.23,AR,1727656718
564,jaumave,23.4167,-99.3833,21.1,74,100,0.83,MX,1727656719
565,novyy urgal,51.0736,132.5642,15.35,94,100,7.08,RU,1727656721
566,maragogi,-9.0122,-35.2225,23.76,85,16,5.63,BR,1727656723
567,along,28.1667,94.7667,21.5,97,33,0.09,IN,1727656724
568,midvagur,62.0511,-7.1939,10.46,93,100,5.14,FO,1727656726
569,bechar,31.6167,-2.2167,27.18,39,20,1.03,DZ,1727656727
570,anaconda,46.1285,-112.9423,12.7,48,0,5.63,US,1727656729
571,mata-utu,-13.2816,-176.1745,27.16,81,23,8.72,WF,1727656731
572,diamantino,-14.4086,-56.4461,29.96,41,100,1.72,BR,1727656732
573,poland,44.0606,-70.3937,14.63,85,0,3.6,US,1727656734
574,yichang,30.7144,111.2847,22.32,76,100,1.83,CN,1727656736
575,isangel,-19.55,169.2667,29.06,65,75,7.2,VU,1727656737
576,panyutyne,48.9333,36.2833,14.69,43,100,6.22,UA,1727656739
577,kinablangan,7.6947,126.5503,28.58,67,69,1.62,PH,1727656740
578,suntar,62.1444,117.6319,2.82,97,100,3.86,RU,1727656742
579,grand falls-windsor,48.9332,-55.6649,11.95,89,100,1.51,CA,1727656744
580,sao joao da barra,-21.6403,-41.0511,21.05,84,0,3.03,BR,1727656745
581,calingasta,-31.3308,-69.4078,20.59,10,14,0.87,AR,1727656749
582,christchurch,-43.5333,172.6333,15.51,68,20,10.29,NZ,1727656488
583,isabela,6.7085,121.9711,30.03,67,100,2.1,PH,1727656752
